{
  "zoneId": "690244259507f23fec596c40",
  "zoneName": "Eolie",
  "zoneCoordinates": [
    [
      38.83756825896614,
      15.284729003906252
    ],
    [
      38.30933576918588,
      15.00457763671875
    ],
    [
      38.55246141354153,
      14.186096191406252
    ]
  ],
  "municipalities": [
    {
      "id": "node_1331034609",
      "name": "Acquacalda",
      "lat": 38.5189432,
      "lng": 14.9463818,
      "adminLevel": "8",
      "country": "Unknown",
      "population": "263",
      "wikipedia": "it:Acquacalda",
      "wikidata": "Q3604653",
      "type": "municipality",
      "source": "overpass",
      "placeType": "village",
      "zone": "Eolie",
      "osmType": "node",
      "osmId": 1331034609
    },
    {
      "id": "node_273440551",
      "name": "Canneto",
      "lat": 38.4905952,
      "lng": 14.9623055,
      "adminLevel": "8",
      "country": "Unknown",
      "population": "2065",
      "wikipedia": "it:Canneto (Lipari)",
      "wikidata": "Q3655409",
      "type": "municipality",
      "source": "overpass",
      "placeType": "village",
      "zone": "Eolie",
      "osmType": "node",
      "osmId": 273440551
    },
    {
      "id": "node_67255666",
      "name": "Leni",
      "lat": 38.5550993,
      "lng": 14.8252497,
      "adminLevel": "8",
      "country": "Unknown",
      "population": "672",
      "wikipedia": null,
      "wikidata": "Q33689645",
      "type": "municipality",
      "source": "overpass",
      "placeType": "village",
      "zone": "Eolie",
      "osmType": "node",
      "osmId": 67255666
    },
    {
      "id": "node_271010627",
      "name": "Lingua",
      "lat": 38.538839,
      "lng": 14.867436,
      "adminLevel": "8",
      "country": "Unknown",
      "population": "262",
      "wikipedia": null,
      "wikidata": "Q18463761",
      "type": "municipality",
      "source": "overpass",
      "placeType": "village",
      "zone": "Eolie",
      "osmType": "node",
      "osmId": 271010627
    },
    {
      "id": "node_67256057",
      "name": "Lipari",
      "lat": 38.4692717,
      "lng": 14.9564504,
      "adminLevel": "8",
      "country": "Unknown",
      "population": "12675",
      "wikipedia": null,
      "wikidata": null,
      "type": "municipality",
      "source": "overpass",
      "placeType": "town",
      "zone": "Eolie",
      "osmType": "node",
      "osmId": 67256057
    },
    {
      "id": "node_67256038",
      "name": "Malfa",
      "lat": 38.5774583,
      "lng": 14.8344568,
      "adminLevel": "8",
      "country": "Unknown",
      "population": "1002",
      "wikipedia": null,
      "wikidata": null,
      "type": "municipality",
      "source": "overpass",
      "placeType": "village",
      "zone": "Eolie",
      "osmType": "node",
      "osmId": 67256038
    },
    {
      "id": "node_2698786107",
      "name": "Pianoconte",
      "lat": 38.4732811,
      "lng": 14.9283724,
      "adminLevel": "8",
      "country": "Unknown",
      "population": "1082",
      "wikipedia": null,
      "wikidata": null,
      "type": "municipality",
      "source": "overpass",
      "placeType": "village",
      "zone": "Eolie",
      "osmType": "node",
      "osmId": 2698786107
    },
    {
      "id": "node_273440553",
      "name": "Quattropani",
      "lat": 38.507912,
      "lng": 14.9167384,
      "adminLevel": "8",
      "country": "Unknown",
      "population": "821",
      "wikipedia": "it:Quattropani",
      "wikidata": "Q18465134",
      "type": "municipality",
      "source": "overpass",
      "placeType": "village",
      "zone": "Eolie",
      "osmType": "node",
      "osmId": 273440553
    },
    {
      "id": "node_67256177",
      "name": "Santa Marina Salina",
      "lat": 38.5595401,
      "lng": 14.8715961,
      "adminLevel": "8",
      "country": "Unknown",
      "population": "852",
      "wikipedia": null,
      "wikidata": "Q30030277",
      "type": "municipality",
      "source": "overpass",
      "placeType": "village",
      "zone": "Eolie",
      "osmType": "node",
      "osmId": 67256177
    },
    {
      "id": "node_5809113329",
      "name": "Stromboli",
      "lat": 38.8040486,
      "lng": 15.2373865,
      "adminLevel": "8",
      "country": "Unknown",
      "population": "639",
      "wikipedia": null,
      "wikidata": null,
      "type": "municipality",
      "source": "overpass",
      "placeType": "village",
      "zone": "Eolie",
      "osmType": "node",
      "osmId": 5809113329
    },
    {
      "id": "node_687570129",
      "name": "Vulcano Porto",
      "lat": 38.4136719,
      "lng": 14.9531425,
      "adminLevel": "8",
      "country": "Unknown",
      "population": "425",
      "wikipedia": null,
      "wikidata": null,
      "type": "municipality",
      "source": "overpass",
      "placeType": "village",
      "zone": "Eolie",
      "osmType": "node",
      "osmId": 687570129
    }
  ],
  "timestamp": "2025-10-29T16:43:40.212Z"
}