{
  "zoneId": "68ff847756cfcbc4c1a90400",
  "zoneName": "Tunisia",
  "municipalities": [
    {
      "name": "أريانة",
      "lat": 36.8587351,
      "lng": 10.188232,
      "adminLevel": "8",
      "population": "114486",
      "wikipedia": "ar:أريانة",
      "wikidata": "Q627487",
      "type": "municipality",
      "source": "overpass",
      "placeType": "city"
    },
    {
      "name": "التوتة",
      "lat": 36.639363,
      "lng": 10.471562,
      "adminLevel": "8",
      "population": null,
      "wikipedia": null,
      "wikidata": null,
      "type": "municipality",
      "source": "overpass",
      "placeType": "village"
    },
    {
      "name": "الحرايرية",
      "lat": 36.7868778,
      "lng": 10.1056176,
      "adminLevel": "8",
      "population": null,
      "wikipedia": null,
      "wikidata": null,
      "type": "municipality",
      "source": "overpass",
      "placeType": "village"
    },
    {
      "name": "الزهراء",
      "lat": 36.7404497,
      "lng": 10.3029461,
      "adminLevel": "8",
      "population": "34962",
      "wikipedia": "fr:Ezzahra",
      "wikidata": "Q3062876",
      "type": "municipality",
      "source": "overpass",
      "placeType": "town"
    },
    {
      "name": "العوينة",
      "lat": 36.852609,
      "lng": 10.2659363,
      "adminLevel": "8",
      "population": null,
      "wikipedia": null,
      "wikidata": null,
      "type": "municipality",
      "source": "overpass",
      "placeType": "town"
    },
    {
      "name": "الكرم",
      "lat": 36.8348312,
      "lng": 10.3181518,
      "adminLevel": "8",
      "population": null,
      "wikipedia": "ar:الكرم (تونس)",
      "wikidata": "Q2536593",
      "type": "municipality",
      "source": "overpass",
      "placeType": "town"
    },
    {
      "name": "المدينة الجديدة",
      "lat": 36.742946,
      "lng": 10.2507635,
      "adminLevel": "8",
      "population": null,
      "wikipedia": "ar:معتمدية المدينة الجديدة",
      "wikidata": "Q3304031",
      "type": "municipality",
      "source": "overpass",
      "placeType": "city"
    },
    {
      "name": "المرسى",
      "lat": 36.8790882,
      "lng": 10.327678,
      "adminLevel": "8",
      "population": null,
      "wikipedia": "en:La Marsa",
      "wikidata": "Q27230",
      "type": "municipality",
      "source": "overpass",
      "placeType": "town"
    },
    {
      "name": "المروج 5",
      "lat": 36.7133259,
      "lng": 10.2045405,
      "adminLevel": "8",
      "population": null,
      "wikipedia": null,
      "wikidata": null,
      "type": "municipality",
      "source": "overpass",
      "placeType": "village"
    },
    {
      "name": "المنيهلة",
      "lat": 36.8533475,
      "lng": 10.1169734,
      "adminLevel": "8",
      "population": null,
      "wikipedia": "ar:المنيهلة",
      "wikidata": "Q11937128",
      "type": "municipality",
      "source": "overpass",
      "placeType": "village"
    },
    {
      "name": "بئر الباي",
      "lat": 36.7105838,
      "lng": 10.3737904,
      "adminLevel": "8",
      "population": null,
      "wikipedia": null,
      "wikidata": null,
      "type": "municipality",
      "source": "overpass",
      "placeType": "town"
    },
    {
      "name": "باب العسل",
      "lat": 36.8120095,
      "lng": 10.1690687,
      "adminLevel": "8",
      "population": null,
      "wikipedia": null,
      "wikidata": null,
      "type": "municipality",
      "source": "overpass",
      "placeType": "town"
    },
    {
      "name": "باردو",
      "lat": 36.8139969,
      "lng": 10.1363018,
      "adminLevel": "8",
      "population": null,
      "wikipedia": null,
      "wikidata": null,
      "type": "municipality",
      "source": "overpass",
      "placeType": "town"
    },
    {
      "name": "برج السدرية",
      "lat": 36.6964922,
      "lng": 10.3857098,
      "adminLevel": "8",
      "population": "8974",
      "wikipedia": "fr:Borj Cedria",
      "wikidata": "Q593652",
      "type": "municipality",
      "source": "overpass",
      "placeType": "village"
    },
    {
      "name": "بن عروس",
      "lat": 36.7516855,
      "lng": 10.2245072,
      "adminLevel": "8",
      "population": "88322",
      "wikipedia": "ar:بن عروس",
      "wikidata": "Q816443",
      "type": "municipality",
      "source": "overpass",
      "placeType": "city"
    },
    {
      "name": "بوشراي",
      "lat": 36.6605859,
      "lng": 10.5363192,
      "adminLevel": "8",
      "population": null,
      "wikipedia": null,
      "wikidata": null,
      "type": "municipality",
      "source": "overpass",
      "placeType": "village"
    },
    {
      "name": "بومهل البساتين",
      "lat": 36.7244212,
      "lng": 10.3010512,
      "adminLevel": "8",
      "population": null,
      "wikipedia": "en:Bou Mhel el-Bassatine",
      "wikidata": "Q2911901",
      "type": "municipality",
      "source": "overpass",
      "placeType": "town"
    },
    {
      "name": "تونس",
      "lat": 36.8002068,
      "lng": 10.1857757,
      "adminLevel": "2",
      "population": "728453",
      "wikipedia": "fr:Tunis",
      "wikidata": "Q3572",
      "type": "municipality",
      "source": "overpass",
      "placeType": "city"
    },
    {
      "name": "جبل الجلود",
      "lat": 36.7708045,
      "lng": 10.1997843,
      "adminLevel": "8",
      "population": null,
      "wikipedia": null,
      "wikidata": null,
      "type": "municipality",
      "source": "overpass",
      "placeType": "village"
    },
    {
      "name": "حلق الوادي",
      "lat": 36.8159278,
      "lng": 10.3042378,
      "adminLevel": "8",
      "population": null,
      "wikipedia": "ar:حلق الوادي",
      "wikidata": "Q798445",
      "type": "municipality",
      "source": "overpass",
      "placeType": "town"
    },
    {
      "name": "حمام الأتف",
      "lat": 36.7313788,
      "lng": 10.3363985,
      "adminLevel": "8",
      "population": "50000",
      "wikipedia": "ar:حمام الأنف",
      "wikidata": "Q1573684",
      "type": "municipality",
      "source": "overpass",
      "placeType": "town"
    },
    {
      "name": "حمام الشط",
      "lat": 36.7189536,
      "lng": 10.3642733,
      "adminLevel": "8",
      "population": null,
      "wikipedia": "en:Hammam Chott",
      "wikidata": "Q946799",
      "type": "municipality",
      "source": "overpass",
      "placeType": "town"
    },
    {
      "name": "حي الرسالة",
      "lat": 36.6612164,
      "lng": 10.3256804,
      "adminLevel": "8",
      "population": null,
      "wikipedia": null,
      "wikidata": null,
      "type": "municipality",
      "source": "overpass",
      "placeType": "village"
    },
    {
      "name": "دوار هيشر",
      "lat": 36.8237415,
      "lng": 10.0960637,
      "adminLevel": "8",
      "population": null,
      "wikipedia": "en:Douar Hicher",
      "wikidata": "Q3037419",
      "type": "municipality",
      "source": "overpass",
      "placeType": "town"
    },
    {
      "name": "رادس",
      "lat": 36.767891,
      "lng": 10.2724617,
      "adminLevel": "8",
      "population": "59998",
      "wikipedia": "ar:رادس",
      "wikidata": "Q27062",
      "type": "municipality",
      "source": "overpass",
      "placeType": "town"
    },
    {
      "name": "رواد",
      "lat": 36.9535973,
      "lng": 10.1891941,
      "adminLevel": "8",
      "population": null,
      "wikipedia": "en:Raoued",
      "wikidata": "Q3175906",
      "type": "municipality",
      "source": "overpass",
      "placeType": "village"
    },
    {
      "name": "زاوية مرناق",
      "lat": 36.69917,
      "lng": 10.27278,
      "adminLevel": "8",
      "population": null,
      "wikipedia": null,
      "wikidata": null,
      "type": "municipality",
      "source": "overpass",
      "placeType": "village"
    },
    {
      "name": "سكرة",
      "lat": 36.8749751,
      "lng": 10.2454267,
      "adminLevel": "8",
      "population": null,
      "wikipedia": "en:La Soukra",
      "wikidata": "Q678697",
      "type": "municipality",
      "source": "overpass",
      "placeType": "village"
    },
    {
      "name": "سليمان",
      "lat": 36.6944327,
      "lng": 10.4865924,
      "adminLevel": "8",
      "population": null,
      "wikipedia": "ar:سليمان (تونس)",
      "wikidata": "Q726858",
      "type": "municipality",
      "source": "overpass",
      "placeType": "village"
    },
    {
      "name": "سيدي الظريف",
      "lat": 36.8810026,
      "lng": 10.3356799,
      "adminLevel": "8",
      "population": null,
      "wikipedia": "ar:سيدي الظريف",
      "wikidata": "Q12217601",
      "type": "municipality",
      "source": "overpass",
      "placeType": "town"
    },
    {
      "name": "سيدي بوسعيد",
      "lat": 36.8710935,
      "lng": 10.3490516,
      "adminLevel": "8",
      "population": "5911",
      "wikipedia": "fr:Sidi Bou Saïd",
      "wikidata": "Q877391",
      "type": "municipality",
      "source": "overpass",
      "placeType": "village"
    },
    {
      "name": "سيدي حسين",
      "lat": 36.7708432,
      "lng": 10.1102505,
      "adminLevel": "8",
      "population": "109690",
      "wikipedia": "fr:Sidi Hassine",
      "wikidata": "Q3129751",
      "type": "municipality",
      "source": "overpass",
      "placeType": "town"
    },
    {
      "name": "شطرانة",
      "lat": 36.8811985,
      "lng": 10.211819,
      "adminLevel": "8",
      "population": null,
      "wikipedia": null,
      "wikidata": null,
      "type": "municipality",
      "source": "overpass",
      "placeType": "village"
    },
    {
      "name": "فندق الجديد",
      "lat": 36.6670607,
      "lng": 10.4481474,
      "adminLevel": "8",
      "population": null,
      "wikipedia": null,
      "wikidata": null,
      "type": "municipality",
      "source": "overpass",
      "placeType": "village"
    },
    {
      "name": "فوشانة‎",
      "lat": 36.6987224,
      "lng": 10.1693582,
      "adminLevel": "8",
      "population": "106167",
      "wikipedia": "fr:Fouchana",
      "wikidata": "Q3079830",
      "type": "municipality",
      "source": "overpass",
      "placeType": "town"
    },
    {
      "name": "قرطاج",
      "lat": 36.8548083,
      "lng": 10.3309924,
      "adminLevel": "8",
      "population": "21276",
      "wikipedia": "ar:قرطاج",
      "wikidata": "Q28151514",
      "type": "municipality",
      "source": "overpass",
      "placeType": "city"
    },
    {
      "name": "مرناق",
      "lat": 36.6807415,
      "lng": 10.2901728,
      "adminLevel": "8",
      "population": null,
      "wikipedia": null,
      "wikidata": null,
      "type": "municipality",
      "source": "overpass",
      "placeType": "town"
    },
    {
      "name": "مقرين",
      "lat": 36.7703354,
      "lng": 10.2315885,
      "adminLevel": "8",
      "population": null,
      "wikipedia": "en:Mégrine",
      "wikidata": "Q3142546",
      "type": "municipality",
      "source": "overpass",
      "placeType": "town"
    },
    {
      "name": "منزل بوزلفة",
      "lat": 36.6821495,
      "lng": 10.5846752,
      "adminLevel": "8",
      "population": null,
      "wikipedia": null,
      "wikidata": null,
      "type": "municipality",
      "source": "overpass",
      "placeType": "village"
    },
    {
      "name": "منوبة",
      "lat": 36.8113307,
      "lng": 10.0947037,
      "adminLevel": "8",
      "population": "58792",
      "wikipedia": "ar:منوبة (تونس)",
      "wikidata": "Q27159",
      "type": "municipality",
      "source": "overpass",
      "placeType": "town"
    },
    {
      "name": "نعسان",
      "lat": 36.7044775,
      "lng": 10.2327771,
      "adminLevel": "8",
      "population": null,
      "wikipedia": null,
      "wikidata": null,
      "type": "municipality",
      "source": "overpass",
      "placeType": "town"
    }
  ],
  "timestamp": "2025-10-27T14:41:02.519Z"
}